[{"geonameId": "1796236", "displayName": "Shanghai:::CN", "latitude": 31.22222, "longitude": 121.45806}, {"geonameId": "1816670", "displayName": "Beijing:::CN", "latitude": 39.9075, "longitude": 116.39723}, {"geonameId": "1795565", "displayName": "Shenzhen:::CN", "latitude": 22.54554, "longitude": 114.0683}, {"geonameId": "1809858", "displayName": "Guangzhou:::CN", "latitude": 23.11667, "longitude": 113.25}, {"geonameId": "2332459", "displayName": "Lagos:::NG", "latitude": 6.45407, "longitude": 3.39467}, {"geonameId": "745044", "displayName": "Istanbul:::TR", "latitude": 41.01384, "longitude": 28.94966}, {"geonameId": "1815286", "displayName": "Chengdu:::CN", "latitude": 30.66667, "longitude": 104.06667}, {"geonameId": "1275339", "displayName": "Mumbai:::IN", "latitude": 19.07283, "longitude": 72.88261}, {"geonameId": "3448439", "displayName": "S\u00e3o Paulo:::BR", "latitude": -23.5475, "longitude": -46.63611}, {"geonameId": "3530597", "displayName": "Mexico City:::MX", "latitude": 19.42847, "longitude": -99.12766}, {"geonameId": "1174872", "displayName": "Karachi:::PK", "latitude": 24.8608, "longitude": 67.0104}, {"geonameId": "1792947", "displayName": "Tianjin:::CN", "latitude": 39.14222, "longitude": 117.17667}, {"geonameId": "1273294", "displayName": "Delhi:::IN", "latitude": 28.65195, "longitude": 77.23149}, {"geonameId": "1791247", "displayName": "Wuhan:::CN", "latitude": 30.58333, "longitude": 114.26667}, {"geonameId": "524901", "displayName": "Moscow:::RU", "latitude": 55.75222, "longitude": 37.61556}, {"geonameId": "1185241", "displayName": "Dhaka:::BD", "latitude": 23.7104, "longitude": 90.40744}, {"geonameId": "1835848", "displayName": "Seoul:::KR", "latitude": 37.566, "longitude": 126.9784}, {"geonameId": "360630", "displayName": "Cairo:::EG", "latitude": 30.06263, "longitude": 31.24967}, {"geonameId": "1790630", "displayName": "Xi\u2019an:::CN", "latitude": 34.25833, "longitude": 108.92861}, {"geonameId": "1799962", "displayName": "Nanjing:::CN", "latitude": 32.06167, "longitude": 118.77778}, {"geonameId": "1566083", "displayName": "Ho Chi Minh City:::VN", "latitude": 10.82302, "longitude": 106.62965}, {"geonameId": "2643743", "displayName": "London:::GB", "latitude": 51.50853, "longitude": -0.12574}, {"geonameId": "5128581", "displayName": "New York City:::US", "latitude": 40.71427, "longitude": -74.00597}, {"geonameId": "1642911", "displayName": "Jakarta:::ID", "latitude": -6.21462, "longitude": 106.84513}, {"geonameId": "1277333", "displayName": "Bengaluru:::IN", "latitude": 12.97194, "longitude": 77.59369}, {"geonameId": "1850147", "displayName": "Tokyo:::JP", "latitude": 35.6895, "longitude": 139.69171}, {"geonameId": "1581130", "displayName": "Hanoi:::VN", "latitude": 21.0245, "longitude": 105.84117}, {"geonameId": "1668341", "displayName": "Taipei:::TW", "latitude": 25.04776, "longitude": 121.53185}, {"geonameId": "2314302", "displayName": "Kinshasa:::CD", "latitude": -4.32758, "longitude": 15.31357}, {"geonameId": "3936456", "displayName": "Lima:::PE", "latitude": -12.04318, "longitude": -77.02824}, {"geonameId": "3688689", "displayName": "Bogot\u00e1:::CO", "latitude": 4.60971, "longitude": -74.08175}, {"geonameId": "1819729", "displayName": "Hong Kong:::HK", "latitude": 22.27832, "longitude": 114.17469}, {"geonameId": "98182", "displayName": "Baghdad:::IQ", "latitude": 33.34058, "longitude": 44.40088}, {"geonameId": "1797929", "displayName": "Qingdao:::CN", "latitude": 36.06488, "longitude": 120.38042}, {"geonameId": "112931", "displayName": "Tehran:::IR", "latitude": 35.69439, "longitude": 51.42151}, {"geonameId": "1269843", "displayName": "Hyder\u0101b\u0101d:::IN", "latitude": 17.38405, "longitude": 78.45636}, {"geonameId": "3451190", "displayName": "Rio de Janeiro:::BR", "latitude": -22.90642, "longitude": -43.18223}, {"geonameId": "2293538", "displayName": "Abidjan:::CI", "latitude": 5.35444, "longitude": -4.00167}, {"geonameId": "1172451", "displayName": "Lahore:::PK", "latitude": 31.558, "longitude": 74.35071}, {"geonameId": "1880252", "displayName": "Singapore:::SG", "latitude": 1.28967, "longitude": 103.85007}, {"geonameId": "993800", "displayName": "Johannesburg:::ZA", "latitude": -26.20227, "longitude": 28.04363}, {"geonameId": "160263", "displayName": "Dar es Salaam:::TZ", "latitude": -6.82349, "longitude": 39.26951}, {"geonameId": "498817", "displayName": "Saint Petersburg:::RU", "latitude": 59.93863, "longitude": 30.31413}, {"geonameId": "361058", "displayName": "Alexandria:::EG", "latitude": 31.20176, "longitude": 29.91582}, {"geonameId": "2147714", "displayName": "Sydney:::AU", "latitude": -33.86785, "longitude": 151.20732}, {"geonameId": "1609350", "displayName": "Bangkok:::TH", "latitude": 13.75398, "longitude": 100.50144}, {"geonameId": "2158177", "displayName": "Melbourne:::AU", "latitude": -37.814, "longitude": 144.96332}, {"geonameId": "3871336", "displayName": "Santiago:::CL", "latitude": -33.45694, "longitude": -70.64827}, {"geonameId": "3369157", "displayName": "Cape Town:::ZA", "latitude": -33.92584, "longitude": 18.42322}, {"geonameId": "105343", "displayName": "Jeddah:::SA", "latitude": 21.49012, "longitude": 39.18624}, {"geonameId": "1264527", "displayName": "Chennai:::IN", "latitude": 13.08784, "longitude": 80.27847}, {"geonameId": "1275004", "displayName": "Kolkata:::IN", "latitude": 22.56263, "longitude": 88.36304}, {"geonameId": "1255364", "displayName": "Surat:::IN", "latitude": 21.19594, "longitude": 72.83023}, {"geonameId": "1298824", "displayName": "Yangon:::MM", "latitude": 16.80528, "longitude": 96.15611}, {"geonameId": "1138958", "displayName": "Kabul:::AF", "latitude": 34.52813, "longitude": 69.17233}, {"geonameId": "108410", "displayName": "Riyadh:::SA", "latitude": 24.68773, "longitude": 46.72185}, {"geonameId": "2335204", "displayName": "Kano:::NG", "latitude": 12.00012, "longitude": 8.51672}, {"geonameId": "5368361", "displayName": "Los Angeles:::US", "latitude": 34.05223, "longitude": -118.24368}, {"geonameId": "1848354", "displayName": "Yokohama:::JP", "latitude": 35.43333, "longitude": 139.65}, {"geonameId": "1799397", "displayName": "Ningbo:::CN", "latitude": 29.87819, "longitude": 121.54945}, {"geonameId": "1838524", "displayName": "Busan:::KR", "latitude": 35.10168, "longitude": 129.03004}, {"geonameId": "323786", "displayName": "Ankara:::TR", "latitude": 39.91987, "longitude": 32.85427}, {"geonameId": "292223", "displayName": "Dubai:::AE", "latitude": 25.07725, "longitude": 55.30927}, {"geonameId": "2950159", "displayName": "Berlin:::DE", "latitude": 52.52437, "longitude": 13.41053}, {"geonameId": "3117735", "displayName": "Madrid:::ES", "latitude": 40.4165, "longitude": -3.70256}, {"geonameId": "1871859", "displayName": "Pyongyang:::KP", "latitude": 39.03385, "longitude": 125.75432}, {"geonameId": "2553604", "displayName": "Casablanca:::MA", "latitude": 33.58831, "longitude": -7.61138}, {"geonameId": "1259229", "displayName": "Pune:::IN", "latitude": 18.51957, "longitude": 73.85535}, {"geonameId": "750269", "displayName": "Bursa:::TR", "latitude": 40.19559, "longitude": 29.06013}, {"geonameId": "3646738", "displayName": "Caracas:::VE", "latitude": 10.48801, "longitude": -66.87919}, {"geonameId": "3435910", "displayName": "Buenos Aires:::AR", "latitude": -34.61315, "longitude": -58.37723}, {"geonameId": "1625822", "displayName": "Surabaya:::ID", "latitude": -7.24917, "longitude": 112.75083}, {"geonameId": "1267995", "displayName": "Kanpur:::IN", "latitude": 26.46523, "longitude": 80.34975}, {"geonameId": "703448", "displayName": "Kyiv:::UA", "latitude": 50.45466, "longitude": 30.5238}, {"geonameId": "3652462", "displayName": "Quito:::EC", "latitude": -0.22985, "longitude": -78.52495}, {"geonameId": "2240449", "displayName": "Luanda:::AO", "latitude": -8.83682, "longitude": 13.23432}, {"geonameId": "1692192", "displayName": "Quezon City:::PH", "latitude": 14.6488, "longitude": 121.0509}, {"geonameId": "344979", "displayName": "Addis Ababa:::ET", "latitude": 9.02497, "longitude": 38.74689}, {"geonameId": "1853909", "displayName": "Osaka:::JP", "latitude": 34.69374, "longitude": 135.50218}, {"geonameId": "184745", "displayName": "Nairobi:::KE", "latitude": -1.28333, "longitude": 36.81667}, {"geonameId": "3657509", "displayName": "Guayaquil:::EC", "latitude": -2.19616, "longitude": -79.88621}, {"geonameId": "3450554", "displayName": "Salvador:::BR", "latitude": -12.97563, "longitude": -38.49096}, {"geonameId": "1269515", "displayName": "Jaipur:::IN", "latitude": 26.91962, "longitude": 75.78781}, {"geonameId": "4887398", "displayName": "Chicago:::US", "latitude": 41.85003, "longitude": -87.65005}, {"geonameId": "53654", "displayName": "Mogadishu:::SO", "latitude": 2.03711, "longitude": 45.34375}, {"geonameId": "2174003", "displayName": "Brisbane:::AU", "latitude": -27.46794, "longitude": 153.02809}, {"geonameId": "1649378", "displayName": "Bekasi:::ID", "latitude": -6.2349, "longitude": 106.9896}, {"geonameId": "311046", "displayName": "\u0130zmir:::TR", "latitude": 38.41273, "longitude": 27.13838}, {"geonameId": "2253354", "displayName": "Dakar:::SN", "latitude": 14.6937, "longitude": -17.44406}, {"geonameId": "1264733", "displayName": "Lucknow:::IN", "latitude": 26.83928, "longitude": 80.92313}, {"geonameId": "3399415", "displayName": "Fortaleza:::BR", "latitude": -3.71722, "longitude": -38.54306}, {"geonameId": "3687925", "displayName": "Cali:::CO", "latitude": 3.43722, "longitude": -76.5225}, {"geonameId": "3169070", "displayName": "Rome:::IT", "latitude": 41.89193, "longitude": 12.51133}, {"geonameId": "124665", "displayName": "Mashhad:::IR", "latitude": 36.29807, "longitude": 59.60567}, {"geonameId": "4699066", "displayName": "Houston:::US", "latitude": 29.76328, "longitude": -95.36327}, {"geonameId": "3469058", "displayName": "Bras\u00edlia:::BR", "latitude": -15.77972, "longitude": -47.92972}, {"geonameId": "3492908", "displayName": "Santo Domingo:::DO", "latitude": 18.47186, "longitude": -69.89232}, {"geonameId": "2063523", "displayName": "Perth:::AU", "latitude": -31.95224, "longitude": 115.8614}, {"geonameId": "1856057", "displayName": "Nagoya:::JP", "latitude": 35.18147, "longitude": 136.90641}, {"geonameId": "3553478", "displayName": "Havana:::CU", "latitude": 23.13302, "longitude": -82.38304}, {"geonameId": "2988507", "displayName": "Paris:::FR", "latitude": 48.85341, "longitude": 2.3488}, {"geonameId": "388349", "displayName": "Al Ba\u015frah al Qad\u012bmah:::IQ", "latitude": 30.50316, "longitude": 47.81507}, {"geonameId": "3911925", "displayName": "La Paz:::BO", "latitude": -16.5, "longitude": -68.15}, {"geonameId": "3674962", "displayName": "Medell\u00edn:::CO", "latitude": 6.25184, "longitude": -75.56359}, {"geonameId": "1512569", "displayName": "Tashkent:::UZ", "latitude": 41.26465, "longitude": 69.21627}, {"geonameId": "2507480", "displayName": "Algiers:::DZ", "latitude": 36.73225, "longitude": 3.08746}, {"geonameId": "1526384", "displayName": "Almaty:::KZ", "latitude": 43.25, "longitude": 76.91667}, {"geonameId": "379252", "displayName": "Khartoum:::SD", "latitude": 15.55177, "longitude": 32.53241}, {"geonameId": "2128295", "displayName": "Sapporo:::JP", "latitude": 43.06667, "longitude": 141.35}, {"geonameId": "2306104", "displayName": "Accra:::GH", "latitude": 5.55602, "longitude": -0.1969}, {"geonameId": "71137", "displayName": "Sanaa:::YE", "latitude": 15.35472, "longitude": 44.20667}, {"geonameId": "3981609", "displayName": "Tijuana:::MX", "latitude": 32.5027, "longitude": -117.00371}, {"geonameId": "276781", "displayName": "Beirut:::LB", "latitude": 33.89332, "longitude": 35.50157}, {"geonameId": "683506", "displayName": "Bucharest:::RO", "latitude": 44.43225, "longitude": 26.10626}, {"geonameId": "195272", "displayName": "Kakamega:::KE", "latitude": 0.28422, "longitude": 34.75229}, {"geonameId": "2911298", "displayName": "Hamburg:::DE", "latitude": 53.55073, "longitude": 9.99302}, {"geonameId": "1269743", "displayName": "Indore:::IN", "latitude": 22.71792, "longitude": 75.8333}, {"geonameId": "3904906", "displayName": "Santa Cruz de la Sierra:::BO", "latitude": -17.78629, "longitude": -63.18117}, {"geonameId": "314830", "displayName": "Gaziantep:::TR", "latitude": 37.05944, "longitude": 37.3825}, {"geonameId": "6077243", "displayName": "Montr\u00e9al:::CA", "latitude": 45.50884, "longitude": -73.58781}, {"geonameId": "1166993", "displayName": "Rawalpindi:::PK", "latitude": 33.59733, "longitude": 73.0479}, {"geonameId": "625144", "displayName": "Minsk:::BY", "latitude": 53.9, "longitude": 27.56667}, {"geonameId": "3054643", "displayName": "Budapest:::HU", "latitude": 47.49835, "longitude": 19.04045}, {"geonameId": "756135", "displayName": "Warsaw:::PL", "latitude": 52.22977, "longitude": 21.01178}, {"geonameId": "3521081", "displayName": "Puebla:::MX", "latitude": 19.03793, "longitude": -98.20346}, {"geonameId": "2761369", "displayName": "Vienna:::AT", "latitude": 48.20849, "longitude": 16.37208}, {"geonameId": "99072", "displayName": "Mosul:::IQ", "latitude": 36.335, "longitude": 43.11889}, {"geonameId": "2538475", "displayName": "Rabat:::MA", "latitude": 34.01325, "longitude": -6.83255}, {"geonameId": "1627896", "displayName": "Semarang:::ID", "latitude": -6.99306, "longitude": 110.42083}, {"geonameId": "3128760", "displayName": "Barcelona:::ES", "latitude": 41.38879, "longitude": 2.15899}, {"geonameId": "964137", "displayName": "Pretoria:::ZA", "latitude": -25.74486, "longitude": 28.18783}, {"geonameId": "1496747", "displayName": "Novosibirsk:::RU", "latitude": 55.0415, "longitude": 82.9346}, {"geonameId": "95446", "displayName": "Erbil:::IQ", "latitude": 36.18333, "longitude": 44.01193}, {"geonameId": "5308655", "displayName": "Phoenix:::US", "latitude": 33.44838, "longitude": -112.07404}, {"geonameId": "170063", "displayName": "Aleppo:::SY", "latitude": 36.20124, "longitude": 37.16117}, {"geonameId": "1701668", "displayName": "Manila:::PH", "latitude": 14.6042, "longitude": 120.9822}, {"geonameId": "104515", "displayName": "Mecca:::SA", "latitude": 21.42664, "longitude": 39.82563}, {"geonameId": "4560349", "displayName": "Philadelphia:::US", "latitude": 39.95238, "longitude": -75.16362}, {"geonameId": "170654", "displayName": "Damascus:::SY", "latitude": 33.5102, "longitude": 36.29128}, {"geonameId": "418863", "displayName": "Isfahan:::IR", "latitude": 32.65246, "longitude": 51.67462}, {"geonameId": "1264728", "displayName": "Ludhi\u0101na:::IN", "latitude": 30.91204, "longitude": 75.85379}, {"geonameId": "890299", "displayName": "Harare:::ZW", "latitude": -17.82772, "longitude": 31.05337}, {"geonameId": "1859171", "displayName": "Kobe:::JP", "latitude": 34.6913, "longitude": 135.183}, {"geonameId": "2673730", "displayName": "Stockholm:::SE", "latitude": 59.32938, "longitude": 18.06871}, {"geonameId": "4013708", "displayName": "Ciudad Ju\u00e1rez:::MX", "latitude": 31.72024, "longitude": -106.46084}, {"geonameId": "1336135", "displayName": "Khulna:::BD", "latitude": 22.80979, "longitude": 89.56439}, {"geonameId": "3405870", "displayName": "Bel\u00e9m:::BR", "latitude": -1.45583, "longitude": -48.50444}, {"geonameId": "1486209", "displayName": "Yekaterinburg:::RU", "latitude": 56.8519, "longitude": 60.6122}, {"geonameId": "1857910", "displayName": "Kyoto:::JP", "latitude": 35.02107, "longitude": 135.75385}, {"geonameId": "4726206", "displayName": "San Antonio:::US", "latitude": 29.42412, "longitude": -98.49363}, {"geonameId": "706483", "displayName": "Kharkiv:::UA", "latitude": 49.98081, "longitude": 36.25272}, {"geonameId": "113646", "displayName": "Tabriz:::IR", "latitude": 38.08, "longitude": 46.2919}, {"geonameId": "5391811", "displayName": "San Diego:::US", "latitude": 32.71571, "longitude": -117.16472}, {"geonameId": "1070940", "displayName": "Antananarivo:::MG", "latitude": -18.91368, "longitude": 47.53613}, {"geonameId": "1258847", "displayName": "R\u0101jkot:::IN", "latitude": 22.29161, "longitude": 70.79322}, {"geonameId": "306571", "displayName": "Konya:::TR", "latitude": 37.87135, "longitude": 32.48464}, {"geonameId": "2078025", "displayName": "Adelaide:::AU", "latitude": -34.92866, "longitude": 138.59863}, {"geonameId": "1176734", "displayName": "Hyderabad:::PK", "latitude": 25.39242, "longitude": 68.37366}, {"geonameId": "4005539", "displayName": "Guadalajara:::MX", "latitude": 20.66682, "longitude": -103.39182}, {"geonameId": "3173435", "displayName": "Milan:::IT", "latitude": 45.46427, "longitude": 9.18951}, {"geonameId": "232422", "displayName": "Kampala:::UG", "latitude": 0.31628, "longitude": 32.58219}, {"geonameId": "323777", "displayName": "Antalya:::TR", "latitude": 36.90812, "longitude": 30.69556}, {"geonameId": "4684888", "displayName": "Dallas:::US", "latitude": 32.78306, "longitude": -96.80667}, {"geonameId": "109223", "displayName": "Medina:::SA", "latitude": 24.46861, "longitude": 39.61417}, {"geonameId": "3946083", "displayName": "Callao:::PE", "latitude": -12.05659, "longitude": -77.11814}, {"geonameId": "2460596", "displayName": "Bamako:::ML", "latitude": 12.65, "longitude": -8.0}, {"geonameId": "2260535", "displayName": "Brazzaville:::CG", "latitude": -4.26613, "longitude": 15.28318}, {"geonameId": "250441", "displayName": "Amman:::JO", "latitude": 31.95522, "longitude": 35.94503}, {"geonameId": "792680", "displayName": "Belgrade:::RS", "latitude": 44.80401, "longitude": 20.46513}, {"geonameId": "3441575", "displayName": "Montevideo:::UY", "latitude": -34.90328, "longitude": -56.18816}, {"geonameId": "2867714", "displayName": "Munich:::DE", "latitude": 48.13743, "longitude": 11.57549}, {"geonameId": "520555", "displayName": "Nizhniy Novgorod:::RU", "latitude": 56.32867, "longitude": 44.00205}, {"geonameId": "115019", "displayName": "Shiraz:::IR", "latitude": 29.61031, "longitude": 52.53113}, {"geonameId": "551487", "displayName": "Kazan:::RU", "latitude": 55.78874, "longitude": 49.12214}, {"geonameId": "3718426", "displayName": "Port-au-Prince:::HT", "latitude": 18.54349, "longitude": -72.33881}, {"geonameId": "727011", "displayName": "Sofia:::BG", "latitude": 42.69751, "longitude": 23.32415}, {"geonameId": "2210247", "displayName": "Tripoli:::LY", "latitude": 32.88743, "longitude": 13.18733}, {"geonameId": "587084", "displayName": "Baku:::AZ", "latitude": 40.37767, "longitude": 49.89201}, {"geonameId": "616052", "displayName": "Yerevan:::AM", "latitude": 40.18111, "longitude": 44.51361}, {"geonameId": "1278710", "displayName": "Amritsar:::IN", "latitude": 31.62234, "longitude": 74.87534}, {"geonameId": "611717", "displayName": "Tbilisi:::GE", "latitude": 41.69411, "longitude": 44.83368}, {"geonameId": "5392171", "displayName": "San Jose:::US", "latitude": 37.33939, "longitude": -121.89496}, {"geonameId": "2964574", "displayName": "Dublin:::IE", "latitude": 53.33306, "longitude": -6.24889}, {"geonameId": "5913490", "displayName": "Calgary:::CA", "latitude": 51.05011, "longitude": -114.08529}, {"geonameId": "2800866", "displayName": "Brussels:::BE", "latitude": 50.85045, "longitude": 4.34878}, {"geonameId": "472757", "displayName": "Volgograd:::RU", "latitude": 48.71939, "longitude": 44.50183}, {"geonameId": "5946768", "displayName": "Edmonton:::CA", "latitude": 53.55014, "longitude": -113.46871}, {"geonameId": "281184", "displayName": "Jerusalem:::IL", "latitude": 31.76904, "longitude": 35.21633}, {"geonameId": "3489854", "displayName": "Kingston:::JM", "latitude": 17.99702, "longitude": -76.79358}, {"geonameId": "4671654", "displayName": "Austin:::US", "latitude": 30.26715, "longitude": -97.74306}, {"geonameId": "3172394", "displayName": "Naples:::IT", "latitude": 40.85216, "longitude": 14.26811}, {"geonameId": "1633419", "displayName": "Padang:::ID", "latitude": -0.94924, "longitude": 100.35427}, {"geonameId": "4259418", "displayName": "Indianapolis:::US", "latitude": 39.76838, "longitude": -86.15804}, {"geonameId": "5391959", "displayName": "San Francisco:::US", "latitude": 37.77493, "longitude": -122.41942}, {"geonameId": "2644210", "displayName": "Liverpool:::GB", "latitude": 53.41058, "longitude": -2.97794}, {"geonameId": "3165524", "displayName": "Turin:::IT", "latitude": 45.07049, "longitude": 7.68682}, {"geonameId": "2028462", "displayName": "Ulan Bator:::MN", "latitude": 47.90771, "longitude": 106.88324}, {"geonameId": "6094817", "displayName": "Ottawa:::CA", "latitude": 45.41117, "longitude": -75.69812}, {"geonameId": "88319", "displayName": "Benghazi:::LY", "latitude": 32.11486, "longitude": 20.06859}, {"geonameId": "3094802", "displayName": "Krak\u00f3w:::PL", "latitude": 50.06143, "longitude": 19.93658}, {"geonameId": "6183235", "displayName": "Winnipeg:::CA", "latitude": 49.8844, "longitude": -97.14704}, {"geonameId": "456172", "displayName": "Riga:::LV", "latitude": 56.946, "longitude": 24.10589}, {"geonameId": "2759794", "displayName": "Amsterdam:::NL", "latitude": 52.37403, "longitude": 4.88969}, {"geonameId": "5809844", "displayName": "Seattle:::US", "latitude": 47.60621, "longitude": -122.33207}, {"geonameId": "702550", "displayName": "Lviv:::UA", "latitude": 49.83826, "longitude": 24.02324}, {"geonameId": "359796", "displayName": "Suez:::EG", "latitude": 29.97371, "longitude": 32.52627}, {"geonameId": "3186886", "displayName": "Zagreb:::HR", "latitude": 45.81444, "longitude": 15.97798}, {"geonameId": "3191281", "displayName": "Sarajevo:::BA", "latitude": 43.84864, "longitude": 18.35644}, {"geonameId": "2464470", "displayName": "Tunis:::TN", "latitude": 36.81897, "longitude": 10.16579}, {"geonameId": "1627549", "displayName": "Serang:::ID", "latitude": -6.11528, "longitude": 106.15417}, {"geonameId": "4140963", "displayName": "Washington:::US", "latitude": 38.89511, "longitude": -77.03637}, {"geonameId": "4644585", "displayName": "Nashville:::US", "latitude": 36.16589, "longitude": -86.78444}, {"geonameId": "2510911", "displayName": "Sevilla:::ES", "latitude": 37.38283, "longitude": -5.97317}, {"geonameId": "4544349", "displayName": "Oklahoma City:::US", "latitude": 35.46756, "longitude": -97.51643}, {"geonameId": "1258980", "displayName": "Raipur:::IN", "latitude": 21.23333, "longitude": 81.63333}, {"geonameId": "1221874", "displayName": "Dushanbe:::TJ", "latitude": 38.53575, "longitude": 68.77905}, {"geonameId": "4990729", "displayName": "Detroit:::US", "latitude": 42.33143, "longitude": -83.04575}, {"geonameId": "4930956", "displayName": "Boston:::US", "latitude": 42.35843, "longitude": -71.05977}, {"geonameId": "3104324", "displayName": "Zaragoza:::ES", "latitude": 41.65606, "longitude": -0.87734}, {"geonameId": "264371", "displayName": "Athens:::GR", "latitude": 37.98376, "longitude": 23.72784}, {"geonameId": "5746545", "displayName": "Portland:::US", "latitude": 45.52345, "longitude": -122.67621}, {"geonameId": "285839", "displayName": "Al A\u1e29mad\u012b:::KW", "latitude": 29.07694, "longitude": 48.08389}, {"geonameId": "618426", "displayName": "Chisinau:::MD", "latitude": 47.00556, "longitude": 28.8575}, {"geonameId": "4641239", "displayName": "Memphis:::US", "latitude": 35.14953, "longitude": -90.04898}, {"geonameId": "5506956", "displayName": "Las Vegas:::US", "latitude": 36.17497, "longitude": -115.13722}, {"geonameId": "292968", "displayName": "Abu Dhabi:::AE", "latitude": 24.45118, "longitude": 54.39696}, {"geonameId": "1176615", "displayName": "Islamabad:::PK", "latitude": 33.72148, "longitude": 73.04329}, {"geonameId": "5263045", "displayName": "Milwaukee:::US", "latitude": 43.0389, "longitude": -87.90647}, {"geonameId": "6173331", "displayName": "Vancouver:::CA", "latitude": 49.24966, "longitude": -123.11934}, {"geonameId": "2747891", "displayName": "Rotterdam:::NL", "latitude": 51.9225, "longitude": 4.47917}, {"geonameId": "118743", "displayName": "Rasht:::IR", "latitude": 37.27611, "longitude": 49.58862}, {"geonameId": "2928810", "displayName": "Essen:::DE", "latitude": 51.45657, "longitude": 7.01228}, {"geonameId": "2711537", "displayName": "G\u00f6teborg:::SE", "latitude": 57.70716, "longitude": 11.96679}, {"geonameId": "3176219", "displayName": "Genoa:::IT", "latitude": 44.40478, "longitude": 8.94439}, {"geonameId": "3143244", "displayName": "Oslo:::NO", "latitude": 59.91273, "longitude": 10.74609}, {"geonameId": "1273780", "displayName": "Cuttack:::IN", "latitude": 20.46497, "longitude": 85.87927}, {"geonameId": "4347778", "displayName": "Baltimore:::US", "latitude": 39.29038, "longitude": -76.61219}, {"geonameId": "694423", "displayName": "Sevastopol:::UA", "latitude": 44.60795, "longitude": 33.52134}, {"geonameId": "2944388", "displayName": "Bremen:::DE", "latitude": 53.07582, "longitude": 8.80717}, {"geonameId": "593116", "displayName": "Vilnius:::LT", "latitude": 54.68916, "longitude": 25.2798}, {"geonameId": "6325494", "displayName": "Qu\u00e9bec City:::CA", "latitude": 46.81228, "longitude": -71.21454}, {"geonameId": "2803138", "displayName": "Antwerpen:::BE", "latitude": 51.22047, "longitude": 4.40026}, {"geonameId": "2996944", "displayName": "Lyon:::FR", "latitude": 45.74846, "longitude": 4.84671}, {"geonameId": "2513416", "displayName": "Murcia:::ES", "latitude": 37.98704, "longitude": -1.13004}, {"geonameId": "4164138", "displayName": "Miami:::US", "latitude": 25.77427, "longitude": -80.19366}, {"geonameId": "3128026", "displayName": "Bilbao:::ES", "latitude": 43.26271, "longitude": -2.92528}, {"geonameId": "1526273", "displayName": "Astana:::KZ", "latitude": 51.1801, "longitude": 71.44598}, {"geonameId": "2655984", "displayName": "Belfast:::GB", "latitude": 54.59682, "longitude": -5.92541}, {"geonameId": "290030", "displayName": "Doha:::QA", "latitude": 25.28545, "longitude": 51.53096}, {"geonameId": "2990440", "displayName": "Nice:::FR", "latitude": 43.70313, "longitude": 7.26608}, {"geonameId": "1711084", "displayName": "Iligan:::PH", "latitude": 8.2289, "longitude": 124.24344}, {"geonameId": "2657896", "displayName": "Z\u00fcrich:::CH", "latitude": 47.36667, "longitude": 8.55}, {"geonameId": "2657832", "displayName": "Aberdeen:::GB", "latitude": 57.14369, "longitude": -2.09814}, {"geonameId": "3190261", "displayName": "Split:::HR", "latitude": 43.50891, "longitude": 16.43915}, {"geonameId": "2766824", "displayName": "Salzburg:::AT", "latitude": 47.79941, "longitude": 13.04399}, {"geonameId": "617239", "displayName": "Tiraspol:::MD", "latitude": 46.84274, "longitude": 29.62909}, {"geonameId": "706524", "displayName": "Kerch:::UA", "latitude": 45.35675, "longitude": 36.47542}, {"geonameId": "6166142", "displayName": "Thunder Bay:::CA", "latitude": 48.38202, "longitude": -89.25018}, {"geonameId": "2656173", "displayName": "Bath:::GB", "latitude": 51.3751, "longitude": -2.36172}, {"geonameId": "3176959", "displayName": "Florence:::IT", "latitude": 43.77925, "longitude": 11.24626}, {"geonameId": "2523920", "displayName": "Palermo:::IT", "latitude": 38.1166, "longitude": 13.3636}, {"geonameId": "3164603", "displayName": "Venice:::IT", "latitude": 45.43713, "longitude": 12.33265}, {"geonameId": "148730", "displayName": "Zanzibar:::TZ", "latitude": -6.16394, "longitude": 39.19793}, {"geonameId": "688533", "displayName": "Yalta:::UA", "latitude": 44.50218, "longitude": 34.16624}, {"geonameId": "3181928", "displayName": "Bologna:::IT", "latitude": 44.49381, "longitude": 11.33875}, {"geonameId": "4335045", "displayName": "New Orleans:::US", "latitude": 29.95465, "longitude": -90.07507}, {"geonameId": "3137115", "displayName": "Stavanger:::NO", "latitude": 58.97005, "longitude": 5.73332}, {"geonameId": "2172517", "displayName": "Canberra:::AU", "latitude": -35.28346, "longitude": 149.12807}, {"geonameId": "281133", "displayName": "Gaza:::PS", "latitude": 31.50161, "longitude": 34.46672}, {"geonameId": "2885679", "displayName": "Konstanz:::DE", "latitude": 47.66033, "longitude": 9.17582}, {"geonameId": "2953504", "displayName": "Baden-Baden:::DE", "latitude": 48.7606, "longitude": 8.23975}, {"geonameId": "615532", "displayName": "Batumi:::GE", "latitude": 41.64228, "longitude": 41.63392}, {"geonameId": "2267057", "displayName": "Lisbon:::PT", "latitude": 38.71667, "longitude": -9.13333}, {"geonameId": "2661552", "displayName": "Bern:::CH", "latitude": 46.94809, "longitude": 7.44744}, {"geonameId": "2660646", "displayName": "Gen\u00e8ve:::CH", "latitude": 46.20222, "longitude": 6.14569}, {"geonameId": "2542997", "displayName": "Marrakesh:::MA", "latitude": 31.63416, "longitude": -7.99994}, {"geonameId": "3413829", "displayName": "Reykjav\u00edk:::IS", "latitude": 64.13548, "longitude": -21.89541}, {"geonameId": "1279259", "displayName": "Agra:::IN", "latitude": 27.18333, "longitude": 78.01667}, {"geonameId": "2520058", "displayName": "Cartagena:::ES", "latitude": 37.60512, "longitude": -0.98623}, {"geonameId": "3060972", "displayName": "Bratislava:::SK", "latitude": 48.14816, "longitude": 17.10674}, {"geonameId": "1813253", "displayName": "Lijiang:::CN", "latitude": 26.86879, "longitude": 100.22072}, {"geonameId": "2037013", "displayName": "Harbin:::CN", "latitude": 45.75, "longitude": 126.65}, {"geonameId": "1529102", "displayName": "\u00dcr\u00fcmqi:::CN", "latitude": 43.80096, "longitude": 87.60046}, {"geonameId": "1808926", "displayName": "Hangzhou:::CN", "latitude": 30.29365, "longitude": 120.16142}, {"geonameId": "1862415", "displayName": "Hiroshima:::JP", "latitude": 34.4, "longitude": 132.45}, {"geonameId": "2735943", "displayName": "Porto:::PT", "latitude": 41.14961, "longitude": -8.61099}, {"geonameId": "6167865", "displayName": "Toronto:::CA", "latitude": 43.70011, "longitude": -79.4163}, {"geonameId": "2641170", "displayName": "Nottingham:::GB", "latitude": 52.9536, "longitude": -1.15047}, {"geonameId": "658225", "displayName": "Helsinki:::FI", "latitude": 60.16952, "longitude": 24.93545}, {"geonameId": "2618425", "displayName": "Copenhagen:::DK", "latitude": 55.67594, "longitude": 12.56553}, {"geonameId": "3183875", "displayName": "Tirana:::AL", "latitude": 41.3275, "longitude": 19.81889}, {"geonameId": "785842", "displayName": "Skopje:::MK", "latitude": 41.99646, "longitude": 21.43141}, {"geonameId": "3067696", "displayName": "Prague:::CZ", "latitude": 50.08804, "longitude": 14.42076}, {"geonameId": "588409", "displayName": "Tallinn:::EE", "latitude": 59.43696, "longitude": 24.75353}, {"geonameId": "1528675", "displayName": "Bishkek:::KG", "latitude": 42.87, "longitude": 74.59}, {"geonameId": "162183", "displayName": "Ashgabat:::TM", "latitude": 37.95, "longitude": 58.38333}, {"geonameId": "1735161", "displayName": "Kuala Lumpur:::MY", "latitude": 3.1412, "longitude": 101.68653}, {"geonameId": "1821306", "displayName": "Phnom Penh:::KH", "latitude": 11.56245, "longitude": 104.91601}, {"geonameId": "1651944", "displayName": "Vientiane:::LA", "latitude": 17.96667, "longitude": 102.6}, {"geonameId": "3703443", "displayName": "Panama:::PA", "latitude": 8.9936, "longitude": -79.51973}, {"geonameId": "3439389", "displayName": "Asuncion:::PY", "latitude": -25.28646, "longitude": -57.647}, {"geonameId": "3583361", "displayName": "San Salvador:::SV", "latitude": 13.68935, "longitude": -89.18718}, {"geonameId": "3621849", "displayName": "San Jose:::CR", "latitude": 9.93333, "longitude": -84.08333}, {"geonameId": "3598132", "displayName": "Guatemala City:::GT", "latitude": 14.64072, "longitude": -90.51327}, {"geonameId": "1283240", "displayName": "Kathmandu:::NP", "latitude": 27.70169, "longitude": 85.3206}, {"geonameId": "2650225", "displayName": "Edinburgh:::GB", "latitude": 55.95206, "longitude": -3.19648}, {"geonameId": "2648579", "displayName": "Glasgow:::GB", "latitude": 55.86515, "longitude": -4.25763}, {"geonameId": "2193733", "displayName": "Auckland:::NZ", "latitude": -36.84853, "longitude": 174.76349}, {"geonameId": "2179537", "displayName": "Wellington:::NZ", "latitude": -41.28664, "longitude": 174.77557}, {"geonameId": "3081368", "displayName": "Wroc\u0142aw:::PL", "latitude": 51.1, "longitude": 17.03333}, {"geonameId": "698740", "displayName": "Odesa:::UA", "latitude": 46.48572, "longitude": 30.74383}, {"geonameId": "202061", "displayName": "Kigali:::RW", "latitude": -1.94995, "longitude": 30.05885}, {"geonameId": "1040652", "displayName": "Maputo:::MZ", "latitude": -25.96553, "longitude": 32.58322}, {"geonameId": "2220957", "displayName": "Yaound\u00e9:::CM", "latitude": 3.86667, "longitude": 11.51667}, {"geonameId": "2972315", "displayName": "Toulouse:::FR", "latitude": 43.60426, "longitude": 1.44367}, {"geonameId": "2995469", "displayName": "Marseille:::FR", "latitude": 43.29695, "longitude": 5.38107}, {"geonameId": "554234", "displayName": "Kaliningrad:::RU", "latitude": 54.70649, "longitude": 20.51095}, {"geonameId": "3383330", "displayName": "Paramaribo:::SR", "latitude": 5.86638, "longitude": -55.16682}, {"geonameId": "2357048", "displayName": "Ouagadougou:::BF", "latitude": 12.36566, "longitude": -1.53388}, {"geonameId": "1216265", "displayName": "Samarkand:::UZ", "latitude": 39.65417, "longitude": 66.95972}, {"geonameId": "2440485", "displayName": "Niamey:::NE", "latitude": 13.51366, "longitude": 2.1098}, {"geonameId": "2422465", "displayName": "Conakry:::GN", "latitude": 9.53795, "longitude": -13.67729}, {"geonameId": "2298890", "displayName": "Kumasi:::GH", "latitude": 6.68848, "longitude": -1.62443}, {"geonameId": "2365267", "displayName": "Lom\u00e9:::TG", "latitude": 6.12874, "longitude": 1.22154}, {"geonameId": "709717", "displayName": "Donetsk:::UA", "latitude": 48.023, "longitude": 37.80224}, {"geonameId": "734077", "displayName": "Thessalon\u00edki:::GR", "latitude": 40.64361, "longitude": 22.93086}, {"geonameId": "4180439", "displayName": "Atlanta:::US", "latitude": 33.749, "longitude": -84.38798}, {"geonameId": "4167147", "displayName": "Orlando:::US", "latitude": 28.53834, "longitude": -81.37924}, {"geonameId": "5419384", "displayName": "Denver:::US", "latitude": 39.73915, "longitude": -104.9847}, {"geonameId": "6324729", "displayName": "Halifax:::CA", "latitude": 44.64269, "longitude": -63.57688}, {"geonameId": "343300", "displayName": "Asmara:::ER", "latitude": 15.33805, "longitude": 38.93184}, {"geonameId": "146268", "displayName": "Nicosia:::CY", "latitude": 35.17531, "longitude": 33.3642}, {"geonameId": "2960316", "displayName": "Luxembourg:::LU", "latitude": 49.61167, "longitude": 6.13}, {"geonameId": "2013348", "displayName": "Vladivostok:::RU", "latitude": 43.10562, "longitude": 131.87353}, {"geonameId": "1252416", "displayName": "Thimphu:::BT", "latitude": 27.46609, "longitude": 89.64191}, {"geonameId": "1280737", "displayName": "Lhasa:::CN", "latitude": 29.65, "longitude": 91.1}, {"geonameId": "1248991", "displayName": "Colombo:::LK", "latitude": 6.93548, "longitude": 79.84868}]